,City,Lat,Lng,Max Temp,Humidity,Cloudiness,Wind Speed,Country,Date
0,egvekinot,66.32,-179.17,18.91,94,58,9.19,RU,1603793622
1,kapaa,22.08,-159.32,69.8,88,40,6.93,US,1603793574
2,bairiki,1.33,172.98,80.6,78,20,6.93,KI,1603793622
3,esperance,-33.87,121.9,66.2,68,0,17.22,AU,1603793622
4,jamestown,42.1,-79.24,42.01,100,90,5.82,US,1603793622
5,nanortalik,60.14,-45.24,30.24,91,1,15.86,GL,1603793623
6,oskarshamn,57.26,16.45,50.0,95,100,1.01,SE,1603793623
7,albany,42.6,-73.97,48.0,74,100,3.0,US,1603793623
8,punta arenas,-53.15,-70.92,39.0,77,40,8.05,CL,1603793527
9,ushuaia,-54.8,-68.3,41.0,75,20,10.29,AR,1603793623
10,rikitea,-23.12,-134.97,75.18,86,54,20.45,PF,1603793623
11,kastamonu,41.5,33.67,71.24,30,0,2.89,TR,1603793624
12,emerald,-23.53,148.17,68.0,88,38,5.82,AU,1603793624
13,mar del plata,-38.0,-57.56,55.0,81,0,3.36,AR,1603793375
14,isabela,6.71,121.97,78.8,94,90,3.36,PH,1603793624
15,grand gaube,-20.01,57.66,79.0,62,0,8.99,MU,1603793624
16,vao,-22.67,167.48,72.63,82,67,20.96,NC,1603793624
17,vilyuysk,63.76,121.62,3.99,92,8,2.86,RU,1603793624
18,sao filipe,14.9,-24.5,80.6,73,100,5.32,CV,1603793624
19,flinders,-34.58,150.86,59.0,78,23,1.01,AU,1603793625
20,sigayevo,56.42,53.78,34.0,70,0,3.0,RU,1603793625
21,severo-kurilsk,50.68,156.12,42.33,83,19,6.93,RU,1603793625
22,victoria,22.29,114.16,78.01,76,46,1.99,HK,1603793428
23,tuktoyaktuk,69.45,-133.04,4.59,90,82,5.26,CA,1603793625
24,los llanos de aridane,28.66,-17.92,73.4,69,75,10.29,ES,1603793625
25,puerto ayora,-0.74,-90.35,66.99,95,93,1.99,EC,1603793625
26,okhotsk,59.38,143.3,30.54,83,0,8.5,RU,1603793626
27,port elizabeth,-33.92,25.57,75.2,69,0,5.82,ZA,1603793546
28,mataura,-46.19,168.86,46.0,84,0,7.0,NZ,1603793626
29,taoudenni,22.68,-3.98,94.33,13,17,7.31,ML,1603793626
30,souillac,-20.52,57.52,80.6,57,40,12.75,MU,1603793626
31,narimanov,46.69,47.85,55.4,38,0,13.42,RU,1603793626
32,hobart,-42.88,147.33,51.01,80,94,4.34,AU,1603793561
33,haines junction,60.75,-137.51,32.72,93,98,2.91,CA,1603793627
34,atuona,-9.8,-139.03,78.48,71,34,21.63,PF,1603793627
35,saverne,48.83,7.25,51.8,76,90,9.17,FR,1603793627
36,cape town,-33.93,18.42,70.0,60,40,17.22,ZA,1603793341
37,lakhipur,26.03,90.3,82.56,74,0,2.1,IN,1603793627
38,waingapu,-9.66,120.26,82.54,69,98,4.25,ID,1603793627
39,auki,-8.77,160.7,79.0,82,100,3.33,SB,1603793628
40,corn island,12.17,-83.04,82.89,72,100,1.74,NI,1603793628
41,katsuura,35.13,140.3,64.4,72,20,11.41,JP,1603793628
42,kodinsk,58.69,99.18,27.36,96,100,5.75,RU,1603793627
43,walvis bay,-22.96,14.51,64.4,68,20,5.82,NA,1603793628
44,torbay,47.67,-52.73,39.0,74,90,6.93,CA,1603793628
45,requena,39.49,-1.1,54.0,53,89,5.99,ES,1603793628
46,reserva,-24.65,-50.85,61.45,99,43,2.82,BR,1603793629
47,avarua,-21.21,-159.78,68.0,77,100,10.29,CK,1603793629
48,bluff,-46.6,168.33,46.0,84,0,7.0,NZ,1603793629
49,ranchuelo,22.38,-80.15,77.0,94,94,4.7,CU,1603793629
50,butaritari,3.07,172.79,81.45,68,86,8.37,KI,1603793629
51,bay roberts,47.6,-53.26,39.99,85,100,3.0,CA,1603793630
52,amahai,-3.33,128.92,82.99,88,87,1.01,ID,1603793630
53,new norfolk,-42.78,147.06,51.01,66,73,1.01,AU,1603793606
54,kavaratti,10.57,72.64,82.26,69,0,4.59,IN,1603793630
55,georgetown,5.41,100.34,86.0,70,20,6.93,MY,1603793596
56,camacha,33.08,-16.33,68.0,56,40,5.82,PT,1603793630
57,bredasdorp,-34.53,20.04,73.4,64,20,11.41,ZA,1603793538
58,dikson,73.51,80.55,8.6,95,94,18.9,RU,1603793631
59,san ramon de la nueva oran,-23.13,-64.33,62.62,64,0,0.31,AR,1603793631
60,carnarvon,-24.87,113.63,75.2,73,0,28.86,AU,1603793631
61,guerrero negro,27.98,-114.06,61.0,31,0,9.71,MX,1603793631
62,lebu,-37.62,-73.65,49.64,82,100,9.53,CL,1603793631
63,port hardy,50.7,-127.42,44.6,100,90,5.82,CA,1603793631
64,tortoli,39.93,9.66,62.6,39,20,18.34,IT,1603793576
65,galle,6.04,80.22,82.51,75,68,10.74,LK,1603793632
66,kaitangata,-46.28,169.85,51.01,73,2,4.52,NZ,1603793632
67,kodiak,57.79,-152.41,46.4,49,1,6.93,US,1603793632
68,olinda,-8.01,-34.86,75.2,88,75,11.61,BR,1603793632
69,opuwo,-18.06,13.84,97.0,15,31,14.03,NA,1603793632
70,covilha,40.29,-7.5,55.99,81,66,8.99,PT,1603793632
71,carutapera,-1.2,-46.02,80.98,75,28,7.85,BR,1603793632
72,mae ramat,16.98,98.52,82.4,65,40,9.17,TH,1603793632
73,inta,66.03,60.17,24.31,93,100,6.62,RU,1603793633
74,ushumun,52.78,126.53,34.03,93,100,5.06,RU,1603793633
75,qaanaaq,77.48,-69.36,7.84,79,41,10.27,GL,1603793633
76,garoua boulai,5.88,14.55,79.65,59,26,6.42,CM,1603793633
77,dangriga,16.97,-88.23,77.0,86,100,4.63,BZ,1603793633
78,halifax,44.65,-63.57,57.0,100,90,8.05,CA,1603793490
79,savinka,50.08,47.1,44.76,54,0,8.43,RU,1603793634
80,tatawin,32.93,10.45,69.8,60,40,6.93,TN,1603793634
81,busselton,-33.65,115.33,64.99,60,99,12.48,AU,1603793634
82,vaini,-21.2,-175.2,71.6,88,40,6.93,TO,1603793634
83,sirajganj,24.45,89.72,84.36,65,8,6.69,BD,1603793634
84,lewistown,40.6,-77.57,50.0,93,90,6.93,US,1603793634
85,ribeira grande,38.52,-28.7,66.2,68,75,5.82,PT,1603793634
86,fairbanks,64.84,-147.72,24.8,92,90,4.7,US,1603793634
87,olafsvik,64.89,-23.71,39.76,69,100,18.19,IS,1603793635
88,port alfred,-33.59,26.89,79.95,57,1,18.84,ZA,1603793635
89,kalga,50.93,118.9,26.67,89,83,7.81,RU,1603793635
90,bengkulu,-3.8,102.27,81.16,76,98,3.8,ID,1603793635
91,leningradskiy,69.38,178.42,19.71,90,9,23.6,RU,1603793635
92,padang,-0.95,100.35,82.89,67,52,4.27,ID,1603793430
93,pevek,69.7,170.31,19.42,94,100,18.81,RU,1603793528
94,khatanga,71.97,102.5,4.19,94,96,11.97,RU,1603793636
95,imbituba,-28.24,-48.67,73.4,88,90,17.22,BR,1603793636
96,the pas,53.83,-101.25,21.2,73,90,6.93,CA,1603793636
97,coolum beach,-26.53,153.1,68.0,97,100,3.0,AU,1603793636
98,faanui,-16.48,-151.75,79.97,81,96,17.22,PF,1603793636
99,thinadhoo,0.53,72.93,83.61,67,0,9.4,MV,1603793636
100,shache,38.42,77.24,64.54,24,0,9.66,CN,1603793637
101,shrewsbury,52.71,-2.75,48.99,87,75,14.99,GB,1603793637
102,izhevskoye,54.56,40.87,45.0,66,100,8.66,RU,1603793637
103,vostok,46.49,135.88,31.64,97,100,4.45,RU,1603793637
104,broken hill,-31.95,141.43,62.6,51,83,10.29,AU,1603793458
105,longyearbyen,78.22,15.64,30.2,74,75,11.41,SJ,1603793637
106,marawi,8.0,124.29,75.99,89,100,5.99,PH,1603793637
107,ipaba,-19.41,-42.42,73.9,78,59,2.21,BR,1603793449
108,huilong,31.81,121.66,66.99,81,72,1.99,CN,1603793638
109,nemuro,43.32,145.57,39.2,93,40,4.7,JP,1603793585
110,hilo,19.73,-155.09,73.4,88,90,3.36,US,1603793638
111,mecca,21.43,39.83,98.69,13,0,6.69,SA,1603793638
112,diamantino,-14.41,-56.45,74.48,87,90,1.21,BR,1603793638
113,codrington,-38.27,141.97,51.69,89,62,7.54,AU,1603793638
114,kenai,60.55,-151.26,34.0,86,90,1.52,US,1603793622
115,bundaberg,-24.85,152.35,70.0,100,90,5.82,AU,1603793638
116,fort nelson,58.81,-122.7,26.6,92,90,5.82,CA,1603793639
117,qui nhon,13.77,109.23,76.82,82,100,13.47,VN,1603793639
118,gizo,-8.1,156.84,82.8,73,80,2.98,SB,1603793639
119,chokurdakh,70.63,147.92,6.44,95,100,6.73,RU,1603793639
120,sesheke,-17.48,24.3,95.0,21,0,10.29,ZM,1603793639
121,provideniya,64.38,-173.3,29.1,95,9,6.85,RU,1603793639
122,ionia,42.99,-85.07,37.99,90,90,1.61,US,1603793547
123,seymchan,62.88,152.43,12.4,92,0,1.52,RU,1603793639
124,lorengau,-2.02,147.27,80.92,76,9,3.33,PG,1603793640
125,labytnangi,66.66,66.42,2.23,93,61,0.76,RU,1603793640
126,mackenzie,55.3,-123.17,37.4,100,90,10.29,CA,1603793640
127,tigre,-34.43,-58.58,62.01,93,0,2.51,AR,1603793640
128,laguna,38.42,-121.42,54.0,34,1,3.36,US,1603793640
129,la asuncion,11.03,-63.86,80.6,88,4,11.41,VE,1603793640
130,sinnamary,5.38,-52.95,79.81,84,20,6.93,GF,1603793641
131,rundu,-17.93,19.77,99.72,10,0,10.38,NA,1603793641
132,kananga,-5.9,22.42,85.15,60,97,4.29,CD,1603793641
133,tadine,-21.55,167.88,73.2,79,39,16.53,NC,1603793641
134,saint anthony,45.02,-93.22,18.0,78,1,3.36,US,1603793517
135,cuxhaven,53.87,8.69,51.01,81,75,13.87,DE,1603793641
136,blackwater,-23.58,148.88,71.83,70,59,10.94,AU,1603793641
137,baghdad,33.34,44.4,87.8,18,0,8.05,IQ,1603793448
138,talnakh,69.49,88.4,3.2,84,4,6.71,RU,1603793642
139,koungou,-12.73,45.2,84.2,66,75,11.41,YT,1603793642
140,yellowknife,62.46,-114.35,21.2,79,90,14.99,CA,1603793642
141,hermanus,-34.42,19.23,73.0,69,100,3.0,ZA,1603793642
142,snezhnogorsk,69.19,33.25,39.2,86,75,8.95,RU,1603793642
143,santiago del estero,-27.8,-64.26,60.78,47,0,7.67,AR,1603793642
144,kyzyl-suu,42.34,78.01,51.46,43,0,2.71,KG,1603793643
145,upernavik,72.79,-56.15,17.8,86,6,6.71,GL,1603793643
146,barbate,36.19,-5.92,64.4,55,0,4.7,ES,1603793643
147,east london,-33.02,27.91,80.6,61,0,14.99,ZA,1603793643
148,beringovskiy,63.05,179.32,31.01,92,22,8.16,RU,1603793643
149,fairview,40.81,-74.0,59.0,100,90,9.78,US,1603793643
150,maua,-23.67,-46.46,66.0,82,75,4.7,BR,1603793643
151,broome,42.25,-75.83,44.01,86,90,6.93,US,1603793643
152,narsaq,60.92,-46.05,30.2,63,3,2.24,GL,1603793644
153,ponta do sol,32.67,-17.1,68.0,60,75,10.29,PT,1603793644
154,saint paul,44.94,-93.09,19.4,73,1,3.36,US,1603793396
155,djambala,-2.54,14.75,79.32,73,88,5.73,CG,1603793644
156,ilulissat,69.22,-51.1,21.2,73,97,5.82,GL,1603793644
157,arraial do cabo,-22.97,-42.03,69.8,100,43,3.36,BR,1603793644
158,pangnirtung,66.15,-65.71,8.35,79,38,5.99,CA,1603793644
159,saldanha,-33.01,17.94,66.2,73,75,11.41,ZA,1603793645
160,cabra,37.47,-4.44,57.99,76,0,4.7,ES,1603793645
161,deniliquin,-35.53,144.97,55.06,69,36,6.78,AU,1603793407
162,mathathane,-22.27,28.75,92.26,20,2,18.63,BW,1603793645
163,mangrol,21.12,70.12,88.9,35,0,8.86,IN,1603793346
164,wenshang,35.73,116.5,66.99,1,100,1.01,CN,1603793645
165,saint-philippe,-21.36,55.77,80.6,61,90,11.41,RE,1603793645
166,cartagena,10.4,-75.51,82.4,94,20,5.82,CO,1603793646
167,maunabo,18.01,-65.9,78.01,48,67,9.42,PR,1603793646
168,bethel,41.37,-73.41,50.0,94,100,1.01,US,1603793536
169,buin,-33.73,-70.75,55.99,70,100,3.36,CL,1603793646
170,anadyr,64.75,177.48,19.4,92,90,6.71,RU,1603793646
171,thompson,55.74,-97.86,19.4,85,75,3.36,CA,1603793646
172,husavik,66.04,-17.34,35.6,69,90,3.36,IS,1603793646
173,pakala,13.47,79.12,91.4,52,75,6.93,IN,1603793646
174,akyab,20.15,92.9,84.11,76,17,11.81,MM,1603793647
175,poum,-20.23,164.02,76.53,73,68,12.06,NC,1603793647
176,kaili,-3.46,120.21,71.1,87,73,2.21,ID,1603793647
177,vadu izei,47.93,23.88,63.0,72,0,3.36,RO,1603793647
178,seoul,37.57,126.98,60.8,72,1,4.76,KR,1603793647
179,mount isa,-20.73,139.5,82.4,17,40,9.17,AU,1603793647
180,manavalakurichi,8.13,77.3,84.2,83,90,6.93,IN,1603793647
181,phan thiet,10.93,108.1,81.34,83,100,10.42,VN,1603793405
182,miquelon,47.1,-56.38,50.0,93,75,20.8,PM,1603793648
183,sobolevo,54.43,31.9,51.21,73,0,13.78,RU,1603793648
184,vietri sul mare,40.67,14.73,60.8,87,90,10.29,IT,1603793648
185,port lincoln,-34.73,135.87,57.34,80,0,9.93,AU,1603793648
186,kalmunai,7.42,81.82,86.34,62,40,9.53,LK,1603793648
187,imeni poliny osipenko,52.42,136.49,31.75,87,9,2.95,RU,1603793648
188,asau,46.43,26.4,55.99,90,0,4.03,RO,1603793648
189,la ronge,55.1,-105.28,24.8,85,90,9.17,CA,1603793648
190,meulaboh,4.14,96.13,83.59,70,57,5.12,ID,1603793649
191,alofi,-19.06,-169.92,71.6,94,19,9.17,NU,1603793649
192,hailey,43.52,-114.32,23.0,62,1,5.82,US,1603793563
193,ulladulla,-35.35,150.47,57.2,82,40,5.82,AU,1603793649
194,ketou,7.36,2.6,88.93,62,34,0.43,BJ,1603793649
195,ixtapa,20.7,-105.2,80.01,89,57,3.11,MX,1603793649
196,tautira,-17.73,-149.15,77.0,88,75,4.7,PF,1603793649
197,half moon bay,37.46,-122.43,55.99,52,1,1.34,US,1603793649
198,dunedin,-45.87,170.5,51.01,73,7,5.23,NZ,1603793384
199,bilokurakyne,49.53,38.73,55.83,47,100,15.73,UA,1603793650
200,tete,-16.16,33.59,91.4,43,20,5.82,MZ,1603793650
201,svolvaer,68.23,14.57,46.4,65,0,19.46,NO,1603793650
202,chara,56.91,118.26,7.86,85,28,4.45,RU,1603793650
203,latung,5.5,120.88,83.23,75,100,17.63,PH,1603793650
204,jinka,5.65,36.65,78.3,57,8,3.51,ET,1603793650
205,basoko,1.24,23.62,80.74,87,38,5.23,CD,1603793650
206,san quintin,30.48,-115.95,56.93,30,0,8.19,MX,1603793650
207,xunchang,28.45,104.72,63.48,70,100,2.28,CN,1603793651
208,rio gallegos,-51.62,-69.22,37.4,64,40,3.36,AR,1603793651
209,kaeo,-35.1,173.78,64.0,91,69,3.09,NZ,1603793651
210,narrabri,-30.32,149.78,71.6,40,40,10.29,AU,1603793651
211,dingle,11.0,122.67,78.58,84,100,4.12,PH,1603793651
212,sitka,57.05,-135.33,48.2,81,90,11.41,US,1603793435
213,luganville,-15.53,167.17,77.0,78,20,6.93,VU,1603793651
214,sovetskiy,61.36,63.58,23.36,92,46,8.99,RU,1603793651
215,sisimiut,66.94,-53.67,19.45,90,18,10.31,GL,1603793651
216,ardakan,32.31,54.02,75.2,13,0,6.93,IR,1603793652
217,fundao,-19.93,-40.4,72.0,88,0,3.36,BR,1603793652
218,mayor pablo lagerenza,-19.93,-60.77,68.13,75,31,3.53,PY,1603793652
219,kharod,21.75,82.57,87.64,37,0,1.52,IN,1603793652
220,coruche,38.96,-8.53,55.99,87,40,2.24,PT,1603793652
221,castro,-24.79,-50.01,63.61,91,42,5.5,BR,1603793652
222,chifeng,42.27,118.96,44.76,45,0,9.06,CN,1603793653
223,roald,62.58,6.13,48.2,66,0,6.93,NO,1603793653
224,gazanjyk,39.24,55.52,76.59,19,6,6.62,TM,1603793653
225,bonavista,48.65,-53.11,37.99,83,100,1.01,CA,1603793653
226,kismayo,-0.36,42.55,85.06,65,40,12.71,SO,1603793653
227,whitecourt,54.15,-115.69,46.63,77,100,18.1,CA,1603793653
228,solnechnyy,50.72,136.63,33.6,92,92,3.02,RU,1603793653
229,bosaso,11.28,49.18,86.0,58,20,9.17,SO,1603793653
230,talaya,61.38,152.75,13.82,94,86,2.28,RU,1603793654
231,caravelas,-17.71,-39.25,77.16,77,100,3.22,BR,1603793654
232,kongolo,-5.38,27.0,82.81,71,47,4.14,CD,1603793654
233,tura,25.52,90.22,78.94,84,2,3.83,IN,1603793654
234,westport,41.14,-73.36,55.0,96,100,10.27,US,1603793546
235,iralaya,15.0,-83.23,78.17,86,100,2.48,HN,1603793654
236,acapulco,16.86,-99.89,79.41,85,100,7.78,MX,1603793374
237,gamba,-2.65,10.0,79.09,79,100,4.36,GA,1603793655
238,cherskiy,68.75,161.3,7.21,95,99,8.34,RU,1603793655
239,sorong,-0.88,131.25,82.89,75,10,7.7,ID,1603793655
240,shakhtinsk,49.71,72.59,32.0,75,40,22.37,KZ,1603793655
241,mayumba,-3.43,10.66,79.97,80,88,6.31,GA,1603793655
242,whitehorse,60.72,-135.05,41.0,44,75,4.7,CA,1603793656
243,acarau,-2.89,-40.12,80.69,72,66,10.74,BR,1603793656
244,saint pete beach,27.73,-82.74,77.0,94,90,11.41,US,1603793656
245,tsuruoka,38.72,139.82,53.6,71,75,4.7,JP,1603793656
246,skegness,53.14,0.34,46.99,88,74,8.01,GB,1603793656
247,gatehouse of fleet,54.88,-4.18,46.99,89,100,7.0,GB,1603793656
248,jacareacanga,-6.22,-57.75,74.08,96,100,2.84,BR,1603793656
249,boysun,38.21,67.2,66.27,21,100,5.12,UZ,1603793656
250,poya,-21.35,165.15,74.71,73,97,5.73,NC,1603793656
251,acari,-15.43,-74.62,63.05,70,98,3.11,PE,1603793657
252,toora-khem,52.47,96.11,33.35,82,95,0.29,RU,1603793657
253,saskylakh,71.92,114.08,-2.31,91,100,5.66,RU,1603793657
254,arfara,37.15,22.03,75.2,38,20,2.77,GR,1603793657
255,mayo,38.89,-76.51,59.0,100,90,3.36,US,1603793657
256,kalabo,-14.97,22.68,98.44,14,0,9.89,ZM,1603793657
257,inhambane,-23.86,35.38,86.0,58,20,12.75,MZ,1603793657
258,camocim,-2.9,-40.84,81.07,69,92,11.07,BR,1603793658
259,wageningen,51.97,5.67,51.01,93,90,13.87,NL,1603793658
260,tecoanapa,16.52,-98.75,77.32,88,95,4.88,MX,1603793658
261,warrington,53.39,-2.58,48.99,93,75,13.87,GB,1603793658
262,praia da vitoria,38.73,-27.07,66.2,82,75,14.14,PT,1603793658
263,narayanpet,16.73,77.5,84.7,53,29,7.36,IN,1603793656
264,kabinda,-6.13,24.48,79.9,70,92,5.57,CD,1603793658
265,rawicz,51.61,16.86,55.99,82,100,5.5,PL,1603793592
266,cherkessk,44.22,42.06,64.85,47,5,15.55,RU,1603793659
267,balakhninskiy,58.01,114.28,14.45,92,69,1.25,RU,1603793659
268,kota tinggi,1.74,103.9,89.6,62,20,6.93,MY,1603793659
269,redlands,34.06,-117.18,66.2,5,1,13.87,US,1603793659
270,pisticci,40.39,16.56,62.6,77,40,3.36,IT,1603793659
271,albanel,48.88,-72.45,24.8,73,40,13.87,CA,1603793659
272,praya,14.92,-23.51,80.6,78,75,8.05,CV,1603793659
273,hithadhoo,-0.6,73.08,83.97,65,61,9.19,MV,1603793660
274,baglung,28.27,83.59,74.79,38,1,5.23,NP,1603793660
275,bartica,6.4,-58.62,71.6,100,0,4.7,GY,1603793660
276,bac lieu,9.29,105.72,82.13,77,100,8.77,VN,1603793646
277,nikolskoye,59.7,30.79,52.0,81,40,11.18,RU,1603793660
278,palestine,31.92,35.2,84.99,65,20,11.41,PS,1603793660
279,humaita,-7.51,-63.02,74.88,94,100,1.88,BR,1603793660
280,boyolangu,-8.12,111.89,78.64,81,100,6.78,ID,1603793660
281,honningsvag,70.98,25.97,37.4,74,0,24.16,NO,1603793661
282,prince rupert,54.32,-130.32,50.0,93,90,3.36,CA,1603793661
283,ahipara,-35.17,173.17,59.92,93,88,0.2,NZ,1603793661
284,liverpool,53.41,-2.98,48.99,93,75,13.87,GB,1603793542
285,wonthaggi,-38.6,145.59,54.0,85,100,18.75,AU,1603793558
286,nantucket,41.28,-70.1,57.99,95,90,5.82,US,1603793661
287,tual,-5.67,132.75,81.61,78,100,11.16,ID,1603793661
288,kupang,-10.17,123.58,80.6,83,40,3.36,ID,1603793661
289,clarence town,-32.58,151.78,64.0,82,90,13.87,AU,1603793662
290,riyadh,24.69,46.72,87.8,25,0,3.36,SA,1603793619
291,selma,36.57,-119.61,51.8,70,75,4.61,US,1603793662
292,bethlehem,-1.46,-48.5,77.0,94,84,3.36,BR,1603793662
293,shaki,41.08,47.17,69.8,60,0,6.93,AZ,1603793662
294,nuevitas,21.55,-77.26,77.0,100,85,6.93,CU,1603793662
295,marsh harbour,26.54,-77.06,81.0,80,27,10.54,BS,1603793662
296,kalengwa,-13.47,25.0,93.58,21,61,7.18,ZM,1603793662
297,chuy,-33.7,-53.46,59.32,82,100,12.77,UY,1603793663
298,karakol,42.49,78.39,52.29,40,0,4.79,KG,1603793577
299,kaka,37.35,59.61,76.5,17,100,14.16,TM,1603793473
300,sudbury,46.49,-80.99,24.8,79,75,3.36,CA,1603793543
301,tafresh,34.69,50.01,67.03,22,0,4.52,IR,1603793663
302,kayerkan,69.35,87.76,3.2,84,24,6.71,RU,1603793663
303,sangmelima,2.93,11.98,79.21,79,89,1.95,CM,1603793663
304,tuatapere,-46.13,167.68,46.0,84,0,7.0,NZ,1603793663
305,sorland,67.67,12.69,46.4,70,0,14.99,NO,1603793663
306,big rapids,43.7,-85.48,34.0,100,90,4.27,US,1603793664
307,brae,60.4,-1.35,50.0,87,20,5.82,GB,1603793664
308,worland,44.02,-107.96,-2.2,84,1,3.58,US,1603793664
309,peddapalli,18.62,79.37,85.77,51,0,5.26,IN,1603793664
310,hualmay,-11.1,-77.61,61.66,88,99,5.88,PE,1603793664
311,ishigaki,24.34,124.16,77.0,78,20,17.22,JP,1603793664
312,luderitz,-26.65,15.16,69.01,52,11,17.43,NA,1603793664
313,adre,13.47,22.2,91.22,16,0,9.75,TD,1603793665
314,martaban,16.53,97.61,83.53,80,20,2.13,MM,1603793665
315,nishihara,26.18,127.76,77.0,50,40,10.29,JP,1603793665
316,montilla,37.59,-4.64,51.8,76,0,4.7,ES,1603793665
317,fortuna,40.6,-124.16,44.6,37,1,9.17,US,1603793665
318,islamkot,24.7,70.18,92.75,12,0,1.5,PK,1603793665
319,yaqui,27.37,-110.17,59.52,30,1,10.92,MX,1603793665
320,havelock,34.88,-76.9,63.0,100,90,2.8,US,1603793665
321,namatanai,-3.67,152.43,81.03,72,39,1.41,PG,1603793665
322,iqaluit,63.75,-68.51,10.4,85,75,4.7,CA,1603793666
323,bongor,10.28,15.37,92.3,17,0,7.11,TD,1603793666
324,huarmey,-10.07,-78.15,62.08,88,96,5.46,PE,1603793666
325,gazli,40.13,63.45,69.93,27,55,15.95,UZ,1603793666
326,ponta delgada,37.73,-25.67,66.2,88,20,2.24,PT,1603793666
327,pangody,65.85,74.49,2.73,92,0,8.55,RU,1603793666
328,altay,47.87,88.12,45.14,47,60,3.58,CN,1603793667
329,marystown,47.17,-55.15,46.99,100,98,3.0,CA,1603793667
330,rivne,50.62,26.23,57.2,82,75,8.95,UA,1603793667
331,saint-joseph,-21.37,55.62,80.6,61,90,11.41,RE,1603793667
332,lao cai,22.48,103.95,79.57,71,53,1.88,VN,1603793667
333,dzhebariki-khaya,62.22,135.8,15.1,95,99,2.82,RU,1603793667
334,barrow,71.29,-156.79,17.6,85,90,11.41,US,1603793667
335,conde,-7.26,-34.91,75.2,94,20,10.54,BR,1603793667
336,champerico,14.3,-91.92,68.0,96,98,1.01,GT,1603793667
337,hobyo,5.35,48.53,82.81,67,17,7.34,SO,1603793668
338,nikolsk,53.72,46.07,38.91,68,52,4.18,RU,1603793668
339,lac du bonnet,50.25,-96.06,17.01,98,100,5.99,CA,1603793668
340,buchanan,5.88,-10.05,86.0,79,75,1.97,LR,1603793668
341,otavi,-19.65,17.33,94.55,11,62,14.65,NA,1603793668
342,niono,14.25,-5.99,94.44,10,27,11.88,ML,1603793668
343,beidao,34.57,105.89,46.47,77,100,3.85,CN,1603793668
344,yulara,-25.24,130.99,87.8,10,0,4.7,AU,1603793668
345,encheng,22.18,112.3,78.06,64,98,3.44,CN,1603793669
346,sabang,5.89,95.32,82.83,76,38,24.11,ID,1603793669
347,maraa,-1.83,-65.37,73.53,97,100,1.07,BR,1603793669
348,maldonado,-34.67,-54.92,55.99,87,0,11.41,UY,1603793669
349,tuy hoa,13.08,109.3,78.08,82,100,10.83,VN,1603793669
350,roros,62.57,11.38,35.6,93,75,4.7,NO,1603793669
351,sabha,27.04,14.43,82.31,17,86,14.29,LY,1603793669
352,faya,18.39,42.45,75.2,12,20,12.75,SA,1603793669
353,esil,51.96,66.4,36.86,93,100,31.34,KZ,1603793669
354,laje,-10.18,-40.97,76.37,66,95,4.68,BR,1603793670
355,goryachegorsk,55.41,88.92,39.51,81,78,6.08,RU,1603793670
356,hovd,48.01,91.64,37.09,69,25,1.28,MN,1603793670
357,erzin,36.96,36.2,86.0,38,1,20.0,TR,1603793670
358,rebrikha,53.07,82.34,50.31,53,91,10.18,RU,1603793670
359,krasnyy chikoy,50.36,108.75,29.8,79,0,2.44,RU,1603793670
360,gomel,52.43,30.98,50.0,76,0,13.42,BY,1603793500
361,altoona,40.52,-78.39,48.0,90,99,2.44,US,1603793670
362,mandali,33.75,45.55,91.33,10,0,9.24,IQ,1603793671
363,ghanzi,-21.57,21.78,94.75,13,60,12.62,BW,1603793671
364,port hedland,-20.32,118.57,78.8,74,33,16.11,AU,1603793671
365,catalina foothills,32.3,-110.92,39.99,37,1,8.05,US,1603793671
366,oktyabrskiy,54.48,53.47,35.08,79,0,11.63,RU,1603793671
367,rio grande,-32.03,-52.1,55.99,99,100,13.0,BR,1603793646
368,clyde river,70.47,-68.59,8.04,84,7,4.25,CA,1603793668
369,moba,33.23,105.02,38.23,95,99,7.31,CN,1603793672
370,chazuta,-6.57,-76.14,74.16,86,54,0.31,PE,1603793672
371,mahebourg,-20.41,57.7,80.6,57,40,12.75,MU,1603793672
372,palmer,42.16,-72.33,48.99,100,90,7.74,US,1603793672
373,san vicente,-26.62,-54.13,58.23,100,63,1.52,AR,1603793672
374,vila franca do campo,37.72,-25.43,66.2,88,20,2.24,PT,1603793672
375,bitung,1.45,125.18,84.2,70,20,7.16,ID,1603793673
376,manado,1.49,124.85,84.2,70,20,1.34,ID,1603793673
377,klaksvik,62.23,-6.59,33.8,86,61,11.25,FO,1603793673
378,hohhot,40.81,111.65,42.8,24,0,4.47,CN,1603793673
379,coquimbo,-29.95,-71.34,53.6,87,2,6.93,CL,1603793437
380,geraldton,-28.77,114.6,69.8,64,0,20.8,AU,1603793673
381,aykhal,66.0,111.5,-4.0,83,92,2.24,RU,1603793674
382,sorrento,40.63,14.37,60.01,72,75,9.17,IT,1603793674
383,spirit river,55.78,-118.84,48.2,61,90,20.8,CA,1603793674
384,kenora,49.82,-94.43,19.4,79,75,16.11,CA,1603793674
385,koster,-25.86,26.9,82.44,26,17,12.88,ZA,1603793674
386,port moresby,-9.44,147.18,82.4,83,75,23.04,PG,1603793427
387,valparaiso,-33.04,-71.63,42.8,100,0,1.12,CL,1603793471
388,pedasi,7.53,-80.03,77.92,85,41,3.69,PA,1603793675
389,kudahuvadhoo,2.67,72.89,83.43,71,27,7.54,MV,1603793675
390,kajaani,64.23,27.73,46.4,100,90,11.41,FI,1603793675
391,aripuana,-9.17,-60.63,73.49,96,100,0.56,BR,1603793675
392,pochutla,15.74,-96.47,73.99,92,99,1.01,MX,1603793675
393,shahrud,36.42,54.98,67.75,26,9,10.27,IR,1603793675
394,hambantota,6.12,81.12,89.6,70,40,10.29,LK,1603793676
395,tupaciguara,-18.59,-48.7,71.56,84,100,1.19,BR,1603793676
396,san francisco,37.77,-122.42,63.0,37,1,3.36,US,1603793083
397,polczyn-zdroj,53.76,16.1,50.0,90,100,1.01,PL,1603793676
398,tasiilaq,65.61,-37.64,32.0,90,100,14.99,GL,1603793676
399,cidreira,-30.18,-50.21,63.01,90,100,13.4,BR,1603793676
400,touros,-5.2,-35.46,73.4,94,40,2.24,BR,1603793677
401,baltasi,56.35,50.21,35.11,80,29,6.89,RU,1603793677
402,vijapur,23.57,72.75,96.8,19,0,2.24,IN,1603793677
403,chicama,-7.84,-79.15,62.56,86,99,4.63,PE,1603793677
404,adrar,20.5,-10.07,87.82,15,14,12.03,MR,1603793677
405,grootfontein,-19.57,18.12,92.98,11,8,13.31,NA,1603793678
406,rocha,-34.48,-54.33,55.45,82,100,11.34,UY,1603793678
407,smolenka,52.14,113.5,26.6,49,0,6.71,RU,1603793678
408,manga,11.66,-1.07,91.49,20,19,7.14,BF,1603793678
409,portland,45.52,-122.68,39.99,74,1,3.36,US,1603793384
410,shevchenkove,49.7,37.17,55.4,50,0,17.9,UA,1603793678
411,bulungu,-4.55,18.6,87.28,56,75,4.21,CD,1603793678
412,kautokeino,69.01,23.04,32.68,95,100,13.44,NO,1603793678
413,barra do corda,-5.5,-45.25,77.4,84,95,7.99,BR,1603793679
414,cam ranh,11.92,109.16,84.2,89,75,6.93,VN,1603793679
415,kolvereid,64.87,11.6,46.4,75,0,3.36,NO,1603793679
416,stranraer,54.9,-5.03,52.0,100,90,9.17,GB,1603793679
417,zhuhai,22.28,113.57,87.01,78,0,13.87,CN,1603793679
418,general pico,-35.66,-63.76,53.2,69,66,13.4,AR,1603793680
419,saint-pierre,-21.34,55.48,80.6,61,90,11.41,RE,1603793563
420,hasaki,35.73,140.83,60.8,72,40,6.93,JP,1603793680
421,huntsville,34.73,-86.59,60.01,93,90,4.7,US,1603793609
422,uyuni,-20.46,-66.83,41.34,49,0,6.53,BO,1603793680
423,mananjary,-21.22,48.33,81.32,54,0,9.24,MG,1603793680
424,moranbah,-22.0,148.05,69.42,82,85,10.56,AU,1603793681
425,bonthe,7.53,-12.51,84.87,70,99,1.99,SL,1603793681
426,wawa,9.9,4.42,87.6,30,0,4.54,NG,1603793681
427,ancud,-41.87,-73.82,42.8,87,40,9.17,CL,1603793681
428,goderich,43.75,-81.72,43.0,88,82,4.38,CA,1603793682
429,pasco,28.29,-82.42,77.0,94,9,1.01,US,1603793682
430,batsfjord,70.63,29.72,35.6,82,0,31.09,NO,1603793682
431,nagarote,12.27,-86.56,75.2,100,40,2.42,NI,1603793682
432,griffith,41.53,-87.42,35.6,100,90,3.36,US,1603793682
433,nelson bay,-32.72,152.15,64.0,82,90,13.87,AU,1603793682
434,avera,33.19,-82.53,64.4,90,90,3.8,US,1603793683
435,denia,38.84,0.11,64.99,39,52,11.01,ES,1603793683
436,peniche,39.36,-9.38,64.99,76,100,10.0,PT,1603793683
437,dubti,11.74,41.09,94.71,17,8,8.46,ET,1603793683
438,mizdah,31.45,12.98,76.37,28,12,7.09,LY,1603793683
439,cascais,38.7,-9.42,64.0,77,20,5.82,PT,1603793684
440,choix,26.71,-108.32,64.8,75,14,2.82,MX,1603793684
441,pemberton,50.32,-122.8,41.0,70,100,1.99,CA,1603793684
442,pemba,-12.97,40.52,81.12,69,3,13.53,MZ,1603793684
443,konnur,16.2,74.75,84.2,48,40,5.82,IN,1603793684
444,panguna,-6.32,155.48,69.55,99,45,1.63,PG,1603793684
445,monchegorsk,67.94,32.87,37.83,95,99,8.52,RU,1603793685
446,rameshki,57.34,36.05,49.46,75,48,12.12,RU,1603793685
447,port blair,11.67,92.75,83.79,71,19,7.81,IN,1603793588
448,napanee,44.25,-76.95,37.0,94,100,5.01,CA,1603793685
449,poyarkovo,49.6,128.68,39.29,71,8,7.54,RU,1603793685
450,tiksi,71.69,128.87,4.01,93,82,4.21,RU,1603793685
451,san rafael,-34.62,-68.33,59.92,33,3,5.37,AR,1603793685
452,kangaatsiaq,68.31,-53.46,22.17,94,44,10.78,GL,1603793685
453,puerto carreno,6.19,-67.49,75.06,90,100,10.16,CO,1603793604
454,kaitong,44.81,123.15,40.5,52,0,9.75,CN,1603793686
455,saint george,37.1,-113.58,39.2,15,1,8.05,US,1603793656
456,gogrial,8.53,28.1,96.17,43,95,1.43,SS,1603793686
457,tianpeng,30.99,103.94,64.0,1,100,9.69,CN,1603793685
458,kushima,31.46,131.23,69.8,68,75,4.7,JP,1603793417
459,shushtar,32.05,48.86,93.9,9,0,5.03,IR,1603793686
460,buncrana,55.13,-7.45,50.0,93,75,12.75,IE,1603793686
461,itaituba,-4.28,-55.98,77.85,77,100,1.28,BR,1603793687
462,san policarpo,12.18,125.51,82.11,81,49,5.57,PH,1603793687
463,kuopio,62.89,27.68,50.0,93,90,11.41,FI,1603793687
464,dobryanka,58.46,56.42,30.2,74,75,11.18,RU,1603793687
465,bria,6.54,21.99,78.57,83,93,4.92,CF,1603793687
466,calama,-22.47,-68.93,44.6,28,0,14.99,CL,1603793647
467,cabo san lucas,22.89,-109.91,73.99,84,2,1.01,MX,1603793687
468,isangel,-19.55,169.27,75.34,80,16,15.37,VU,1603793688
469,sungaipenuh,-2.08,101.38,71.73,80,79,4.03,ID,1603793497
470,palmares do sul,-30.26,-50.51,62.6,90,100,11.3,BR,1603793688
471,bandarbeyla,9.49,50.81,79.25,61,59,14.43,SO,1603793688
472,ngunguru,-35.62,174.5,64.0,91,96,5.88,NZ,1603793688
473,oktyabrskoye,43.06,44.74,57.2,76,75,11.18,RU,1603793688
474,agirish,61.92,63.02,20.89,94,76,6.82,RU,1603793526
475,ostrovnoy,68.05,39.51,40.96,92,100,16.24,RU,1603793689
476,yar-sale,66.83,70.83,6.57,95,9,3.53,RU,1603793689
477,kruisfontein,-34.0,24.73,80.01,63,15,7.0,ZA,1603793689
478,cumberland,35.05,-78.87,59.0,93,1,1.41,US,1603793689
479,nchelenge,-9.35,28.73,86.25,41,97,6.67,ZM,1603793689
480,fare,-16.7,-151.02,80.55,79,88,16.55,PF,1603793689
481,ucluelet,48.93,-125.55,46.0,92,88,5.66,CA,1603793689
482,orlik,52.52,99.83,26.49,91,38,4.14,RU,1603793690
483,menongue,-14.66,17.69,106.99,10,0,2.44,AO,1603793690
484,eskisehir,39.78,30.52,62.6,63,25,9.17,TR,1603793690
485,qandala,11.47,49.87,83.71,40,0,7.61,SO,1603793690
486,cervo,43.67,-7.41,60.01,86,96,11.01,ES,1603793690
487,clones,54.18,-7.23,51.01,92,99,5.01,IE,1603793691
488,bestobe,52.5,73.1,39.74,68,90,15.64,KZ,1603793691
489,boguchany,58.38,97.45,28.76,97,100,8.03,RU,1603793691
490,kijang,35.24,129.21,62.6,55,6,6.93,KR,1603793691
491,alice springs,-23.7,133.88,78.8,13,0,10.29,AU,1603793691
492,auray,47.67,-2.99,57.99,100,90,12.75,FR,1603793691
493,northam,51.03,-4.22,55.99,97,100,10.0,GB,1603793692
494,san cristobal,7.77,-72.22,64.78,91,49,2.21,VE,1603793692
495,constantine,36.37,6.61,55.4,62,40,9.17,DZ,1603793400
496,pisco,-13.7,-76.22,61.0,87,0,8.05,PE,1603793692
497,najran,17.49,44.13,80.6,14,0,4.7,SA,1603793644
498,baturaja,-4.13,104.17,76.55,90,99,4.18,ID,1603793692
499,kotelnich,58.31,48.35,34.74,84,100,7.31,RU,1603793692
500,karratha,-20.74,116.85,75.74,70,72,11.5,AU,1603793693
501,vysokogornyy,50.12,139.15,28.83,94,0,2.35,RU,1603793693
502,maltahohe,-24.83,16.98,93.27,11,0,13.27,NA,1603793693
503,muros,42.78,-9.06,57.99,92,100,15.01,ES,1603793693
504,tirur,10.9,75.92,86.0,66,40,4.7,IN,1603793693
505,gornyy,55.12,83.91,42.44,71,61,9.91,RU,1603793693
506,aba,5.11,7.37,80.6,88,75,2.24,NG,1603793694
507,morant bay,17.88,-76.41,78.8,83,20,3.36,JM,1603793694
508,panguipulli,-39.63,-72.33,39.2,100,40,2.24,CL,1603793694
509,benicarlo,40.42,0.43,59.0,53,37,5.01,ES,1603793694
510,benghazi,32.12,20.07,77.86,52,2,14.92,LY,1603793694
511,tiznit,29.58,-9.5,67.03,47,0,3.15,MA,1603793694
512,santa comba,43.03,-8.81,57.99,92,100,5.99,ES,1603793695
513,esso,55.93,158.7,31.12,93,96,2.39,RU,1603793695
514,san patricio,28.02,-97.52,57.2,87,90,13.87,US,1603793695
515,paamiut,61.99,-49.67,28.76,87,0,17.94,GL,1603793695
516,umm kaddadah,13.6,26.69,92.62,15,19,12.97,SD,1603793695
517,matara,5.95,80.54,84.11,71,52,9.86,LK,1603793696
518,umm lajj,25.02,37.27,87.98,50,0,12.15,SA,1603793696
519,bossangoa,6.49,17.46,87.89,66,84,0.47,CF,1603793696
520,sibolga,1.74,98.78,83.23,65,1,3.22,ID,1603793696
521,moussoro,13.64,16.49,93.07,13,0,15.32,TD,1603793696
522,kavieng,-2.57,150.8,83.39,61,0,2.26,PG,1603793696
523,kathu,7.92,98.33,84.2,79,40,9.17,TH,1603793696
524,linqing,36.85,115.71,62.01,30,100,7.14,CN,1603793697
525,el dorado,38.77,-120.52,51.01,21,3,8.68,US,1603793697
526,juquitiba,-23.93,-47.07,66.0,82,75,4.7,BR,1603793697
527,matay,28.42,30.78,86.02,36,0,8.88,EG,1603793697
528,lompoc,34.64,-120.46,48.2,81,1,4.7,US,1603793697
529,yamethin,20.43,96.15,83.44,83,51,5.08,MM,1603793697
530,waterford,42.7,-83.4,39.0,86,90,3.36,US,1603793599
531,astana,51.18,71.45,32.0,84,75,20.13,KZ,1603793648
532,belaya gora,68.53,146.42,12.7,91,100,6.49,RU,1603793528
533,kavarskas,55.43,24.92,53.15,84,92,12.68,LT,1603793698
534,marsa matruh,31.35,27.25,75.2,53,40,11.41,EG,1603793698
535,roma,43.21,-75.46,42.8,81,90,1.63,US,1603793698
536,borovoy,55.43,86.08,50.0,66,0,6.71,RU,1603793698
537,emba,48.83,58.14,38.91,68,36,20.71,KZ,1603793698
538,norman wells,65.28,-126.83,23.0,92,90,3.36,CA,1603793698
539,la brea,15.8,-85.97,74.37,83,90,2.73,HN,1603793698
540,truth or consequences,33.13,-107.25,24.8,79,90,18.34,US,1603793699
541,dzilam gonzalez,21.28,-88.93,75.34,95,100,14.41,MX,1603793699
542,davila,18.47,120.58,86.0,84,75,5.82,PH,1603793699
543,constitucion,-35.33,-72.42,51.6,71,100,2.91,CL,1603793699
544,shingu,33.73,135.98,64.4,63,20,2.24,JP,1603793699
545,moyale,3.52,39.06,75.78,66,81,9.06,KE,1603793699
546,airai,-8.93,125.41,64.85,100,85,2.37,TL,1603793699
547,thongwa,16.76,96.53,89.6,66,40,4.7,MM,1603793700
548,mabay,6.06,124.47,84.2,79,90,2.24,PH,1603793700
549,puerto escondido,15.85,-97.07,78.31,78,76,3.91,MX,1603793700
550,akhaldaba,41.65,42.15,82.4,69,0,8.05,GE,1603793700
551,ndola,-12.96,28.64,91.69,21,12,5.95,ZM,1603793700
552,druskininkai,54.02,23.97,53.6,87,100,8.95,LT,1603793701
553,necochea,-38.55,-58.74,54.0,84,0,7.0,AR,1603793701
554,dalianwan,39.03,121.69,55.4,47,0,6.71,CN,1603793701
555,panji,-7.73,114.1,82.92,71,95,2.8,ID,1603793702
556,pocatello,42.87,-112.45,33.8,24,90,8.05,US,1603793702
557,batagay-alyta,67.8,130.41,7.68,94,97,1.14,RU,1603793703
558,mount gambier,-37.83,140.77,59.0,67,90,8.05,AU,1603793506
559,visnes,59.36,5.22,53.01,76,98,11.41,NO,1603793703
560,kindu,-2.95,25.95,78.73,83,81,2.77,CD,1603793703
561,revelstoke,50.98,-118.2,32.0,86,90,3.36,CA,1603793462
562,the valley,18.22,-63.06,82.4,69,20,11.41,AI,1603793704
563,sarkand,45.41,79.92,63.45,26,1,3.74,KZ,1603793704
564,barabash,43.2,131.48,50.0,87,40,4.47,RU,1603793704
565,korla,41.76,86.15,59.25,31,0,16.42,CN,1603793704
566,nuuk,64.18,-51.72,23.0,79,20,4.7,GL,1603793705
567,santa rosa,14.31,121.11,84.2,74,75,9.17,PH,1603793705
568,kabanjahe,3.1,98.49,86.0,79,40,9.17,ID,1603793705
569,ayan,56.45,138.17,35.02,78,2,6.82,RU,1603793705
570,fort walton beach,30.41,-86.62,77.0,88,20,11.05,US,1603793706
571,miri,4.41,114.01,82.4,78,40,4.7,MY,1603793706
572,coari,-4.08,-63.14,74.82,96,100,1.21,BR,1603793706
573,henties bay,-22.12,14.28,61.0,85,44,5.01,NA,1603793706
574,santo antonio do monte,-20.09,-45.29,69.51,75,99,1.61,BR,1603793706
575,varkaus,62.32,27.87,50.0,93,90,12.75,FI,1603793706
576,niamey,13.51,2.11,87.8,22,0,4.7,NE,1603793595
577,lagoa,39.05,-27.98,64.63,73,93,14.38,PT,1603793707
